{
"type": "FeatureCollection",
"name": "Manufactured_Gas_Plant_Sites",
"crs": { "type": "name", "properties": { "name": "urn:ogc:def:crs:OGC:1.3:CRS84" } },
"features": [
{ "type": "Feature", "properties": { "objectid": 1, "epaid": "NONCD0000032", "sitename": "Asheville MGP 2", "cerclis_n": "Asheville Coal Gas Plant No 2", "siteaddr": "173 S Charotte Street", "sitecity": "Asheville", "sitecounty": "Buncombe", "yrs_op": "1893-1907", "lead_rp": "Progress Energy", "status": "A" }, "geometry": { "type": "Point", "coordinates": [ -82.550134768370626, 35.590410894962105 ] } },
{ "type": "Feature", "properties": { "objectid": 2, "epaid": "NCD986188787", "sitename": "Asheville MGP 1", "cerclis_n": "Asheville Coal Gas Plant No 1", "siteaddr": "31 Riverside Drive", "sitecity": "Asheville", "sitecounty": "Buncombe", "yrs_op": "1902-1953", "lead_rp": "Progress Energy", "status": "A" }, "geometry": { "type": "Point", "coordinates": [ -82.567345773176598, 35.58531189344211 ] } },
{ "type": "Feature", "properties": { "objectid": 3, "epaid": "NONCD0000002", "sitename": "Burlington MGP", "cerclis_n": "Burlington Coal Gas Plant", "siteaddr": "1205 North Church Street", "sitecity": "Burlington", "sitecounty": "Alamance", "yrs_op": "1925-1953", "lead_rp": "Duke Power", "status": "A" }, "geometry": { "type": "Point", "coordinates": [ -79.418429861929852, 36.096935118874661 ] } },
{ "type": "Feature", "properties": { "objectid": 4, "epaid": " ", "sitename": "Charlotte MGP No 1", "cerclis_n": "Charlotte Coal Gas Plant No 1", "siteaddr": "200 South College Street", "sitecity": "Charlotte", "sitecounty": "Mecklenburg", "yrs_op": "1857-1900", "lead_rp": "unkown", "status": "I" }, "geometry": { "type": "Point", "coordinates": [ -80.843953242471827, 35.225400881841523 ] } },
{ "type": "Feature", "properties": { "objectid": 5, "epaid": "NCD986188803", "sitename": "Charlotte MGP No 2", "cerclis_n": "Charlotte Coal Gas Plant No 2", "siteaddr": "1400 South Boulevard", "sitecity": "Charlotte", "sitecounty": "Mecklenburg", "yrs_op": "1899-1955", "lead_rp": "Duke Power", "status": "A" }, "geometry": { "type": "Point", "coordinates": [ -80.854004244726127, 35.215738878972829 ] } },
{ "type": "Feature", "properties": { "objectid": 6, "epaid": "NCD986197333", "sitename": "Concord MGP", "cerclis_n": "Concord Coal Gas Plant", "siteaddr": "183 Academy Avenue", "sitecity": "Concord", "sitecounty": "Cabarrus", "yrs_op": "1911-1950", "lead_rp": "SCANA/PSNC", "status": "A" }, "geometry": { "type": "Point", "coordinates": [ -80.592068176817591, 35.411665930355099 ] } },
{ "type": "Feature", "properties": { "objectid": 7, "epaid": "NCD986173938", "sitename": "Durham MGP", "cerclis_n": "Durham Gas Plant", "siteaddr": "708 Gilbert Street", "sitecity": "Durham", "sitecounty": "Durham", "yrs_op": "1910-1955", "lead_rp": "SCANA/PSNC", "status": "A" }, "geometry": { "type": "Point", "coordinates": [ -78.888434695553102, 35.996424116668948 ] } },
{ "type": "Feature", "properties": { "objectid": 8, "epaid": "NCD986197267", "sitename": "Elizabeth City MGP", "cerclis_n": "Elizabeth City Coal Gas", "siteaddr": "Ward Street", "sitecity": "Elizabeth City", "sitecounty": "Pasquotank", "yrs_op": "1898-1958", "lead_rp": "AGL Resources", "status": "A" }, "geometry": { "type": "Point", "coordinates": [ -76.217390896289615, 36.309264276487951 ] } },
{ "type": "Feature", "properties": { "objectid": 9, "epaid": "NCD986197341", "sitename": "Fayetteville MGP", "cerclis_n": "Fayetteville Coal Gas/Ray Ave", "siteaddr": "Ray Avenue", "sitecity": "Fayetteville", "sitecounty": "Cumberland", "yrs_op": "1859-1948", "lead_rp": "City of Fayetteville", "status": "A" }, "geometry": { "type": "Point", "coordinates": [ -78.8821286443372, 35.056959915329095 ] } },
{ "type": "Feature", "properties": { "objectid": 10, "epaid": "NCD986188829", "sitename": "Gastonia MGP", "cerclis_n": "Gastonia Coal Gas Plant", "siteaddr": "Caldwell Street", "sitecity": "Gastonia", "sitecounty": "Gaston", "yrs_op": "1920-1950", "lead_rp": "SCANA/PSNC", "status": "I" }, "geometry": { "type": "Point", "coordinates": [ -81.184029345889073, 35.276274879984186 ] } },
{ "type": "Feature", "properties": { "objectid": 11, "epaid": "NCD986197309", "sitename": "Goldsboro MGP No 1", "cerclis_n": "Goldsboro Coal Gas Plant No 1", "siteaddr": "Virginia and Vine Streets", "sitecity": "Goldsboro", "sitecounty": "Wayne", "yrs_op": "1900-1940", "lead_rp": "unknown", "status": "I" }, "geometry": { "type": "Point", "coordinates": [ -77.999576394403363, 35.391415018045969 ] } },
{ "type": "Feature", "properties": { "objectid": 12, "epaid": "NCD981861743", "sitename": "Greensboro MGP No 2", "cerclis_n": "Duke Power/Greensboro Gas Plant", "siteaddr": "Friendly Ave and Church Street", "sitecity": "Greensboro", "sitecounty": "Guilford", "yrs_op": "1910-1955", "lead_rp": "Duke Power", "status": "A" }, "geometry": { "type": "Point", "coordinates": [ -79.785639971506342, 36.074050100966204 ] } },
{ "type": "Feature", "properties": { "objectid": 13, "epaid": "NONCD0001089", "sitename": "Greensboro MGP No 1", "cerclis_n": "Greensboro Coal Gas Plant No 1", "siteaddr": "Church Street", "sitecity": "Greensboro", "sitecounty": "Guilford", "yrs_op": "NA", "lead_rp": "Duke Power", "status": "A" }, "geometry": { "type": "Point", "coordinates": [ -79.78642497179672, 36.072896100646716 ] } },
{ "type": "Feature", "properties": { "objectid": 14, "epaid": "NCD986188886", "sitename": "Greenville MGP", "cerclis_n": "Greenville Coal Gas Plant", "siteaddr": "Plant Street", "sitecity": "Greenville", "sitecounty": "Pitt", "yrs_op": "1926-1951", "lead_rp": "Greenville Utilities Commission", "status": "A" }, "geometry": { "type": "Point", "coordinates": [ -77.377033216181687, 35.616100088012587 ] } },
{ "type": "Feature", "properties": { "objectid": 15, "epaid": "NONCD0001084", "sitename": "Henderson MGP", "cerclis_n": "Henderson Coal Gas Plant", "siteaddr": "Yadkin Street", "sitecity": "Henderson", "sitecounty": "Vance", "yrs_op": "1912-1942", "lead_rp": "unknown", "status": "I" }, "geometry": { "type": "Point", "coordinates": [ -78.423855573081596, 36.329660204587036 ] } },
{ "type": "Feature", "properties": { "objectid": 16, "epaid": "NONCD0001085", "sitename": "Hickory MGP", "cerclis_n": "Hickory Coal Gas Plant", "siteaddr": "625 12th Street Drive NW", "sitecity": "Hickory", "sitecounty": "Catawba", "yrs_op": "1933-1948", "lead_rp": "PNG", "status": "I" }, "geometry": { "type": "Point", "coordinates": [ -81.365321426652883, 35.742297971787352 ] } },
{ "type": "Feature", "properties": { "objectid": 17, "epaid": "NCD986188837", "sitename": "High Point MGP", "cerclis_n": "High Point Coal Gas Plant", "siteaddr": "Centennial St and Kivett Drive", "sitecity": "High Point", "sitecounty": "Guilford", "yrs_op": "1912-1948", "lead_rp": "Duke Power", "status": "I" }, "geometry": { "type": "Point", "coordinates": [ -80.000765029712198, 35.960060068941154 ] } },
{ "type": "Feature", "properties": { "objectid": 18, "epaid": "NCD986197366", "sitename": "Kinston MGP", "cerclis_n": "Kinston Coal Gas Plant", "siteaddr": "South St and Herritage Street", "sitecity": "Kinston", "sitecounty": "Lenoir", "yrs_op": "1925-1952", "lead_rp": "Progress Energy", "status": "A" }, "geometry": { "type": "Point", "coordinates": [ -77.585029262001939, 35.255698003015468 ] } },
{ "type": "Feature", "properties": { "objectid": 19, "epaid": "NCD986197358", "sitename": "Lexington MGP", "cerclis_n": "Lexington Coal Gas Plant", "siteaddr": "Gas Plant Road or SR 2001", "sitecity": "Lexington", "sitecounty": "Davidson", "yrs_op": "1920-1950", "lead_rp": "unknown", "status": "I" }, "geometry": { "type": "Point", "coordinates": [ -80.223865090253511, 35.83092303377191 ] } },
{ "type": "Feature", "properties": { "objectid": 20, "epaid": "NCD986197259", "sitename": "New Bern MGP", "cerclis_n": "New Bern Coal Gas Plant", "siteaddr": "506 Tryon Palace Drive", "sitecity": "New Bern", "sitecounty": "Craven", "yrs_op": "1859-1947", "lead_rp": "Progress Energy", "status": "A" }, "geometry": { "type": "Point", "coordinates": [ -77.042617089477247, 35.105453988063559 ] } },
{ "type": "Feature", "properties": { "objectid": 21, "epaid": "NCD986188894", "sitename": "Raleigh MGP No 1", "cerclis_n": "Raleigh Coal Gas Plant No 1", "siteaddr": "McDowell St and Cararrus Street", "sitecity": "Raleigh", "sitecounty": "Wake", "yrs_op": "1872-1914", "lead_rp": "Progress Energy", "status": "A" }, "geometry": { "type": "Point", "coordinates": [ -78.642926610158099, 35.77392307833334 ] } },
{ "type": "Feature", "properties": { "objectid": 22, "epaid": "NCD986188902", "sitename": "Raleigh MGP No 2", "cerclis_n": "Raleigh Coal Gas Plant No 2", "siteaddr": "600 West Cabarrus Street", "sitecity": "Raleigh", "sitecounty": "Wake", "yrs_op": "1916-1953", "lead_rp": "SCANA/PSNC", "status": "A" }, "geometry": { "type": "Point", "coordinates": [ -78.6476246107392, 35.775334078228056 ] } },
{ "type": "Feature", "properties": { "objectid": 23, "epaid": "NONCD0001087", "sitename": "Reidsville MGP", "cerclis_n": "Reidsville Coal Gas Plant", "siteaddr": "825 Way Street", "sitecity": "Reidsville", "sitecounty": "Rockingham", "yrs_op": "1929-1946", "lead_rp": "PNG", "status": "I" }, "geometry": { "type": "Point", "coordinates": [ -79.660219949305556, 36.348873163393023 ] } },
{ "type": "Feature", "properties": { "objectid": 24, "epaid": "NCD986197325", "sitename": "Rocky Mount MGP No 1", "cerclis_n": "Rocky Mount Coal Gas Plant No 1", "siteaddr": "Wye Street", "sitecity": "Rocky Mount", "sitecounty": "Edgecomb", "yrs_op": "1905-1936", "lead_rp": "unknown", "status": "I" }, "geometry": { "type": "Point", "coordinates": [ -77.799427361860026, 35.931246141125335 ] } },
{ "type": "Feature", "properties": { "objectid": 25, "epaid": "NCD986197317", "sitename": "Rocky Mount MGP No 2", "cerclis_n": "Rocky Mount Coal Gas Plant No 2", "siteaddr": "100 East Virginia Street", "sitecity": "Rocky Mount", "sitecounty": "Edgecomb", "yrs_op": "1920-1950", "lead_rp": "City of Rocky Mount", "status": "I" }, "geometry": { "type": "Point", "coordinates": [ -77.790913360693708, 35.951059146039974 ] } },
{ "type": "Feature", "properties": { "objectid": 26, "epaid": "NCD986197283", "sitename": "Salisbury MGP No 1", "cerclis_n": "Salisbury Coal Gas Plant No 1", "siteaddr": "324 East Liberty Street", "sitecity": "Salisbury", "sitecounty": "Rowan", "yrs_op": "1910-1948", "lead_rp": "Duke Power", "status": "A" }, "geometry": { "type": "Point", "coordinates": [ -80.464744153074918, 35.667214989698671 ] } },
{ "type": "Feature", "properties": { "objectid": 27, "epaid": "NCD986197291", "sitename": "Statesville MGP", "cerclis_n": "Statesville Coal Gas Plant", "siteaddr": "615 South Center Street", "sitecity": "Statesville", "sitecounty": "Iredell", "yrs_op": "1918-1945", "lead_rp": "SCANA/PSNC", "status": "I" }, "geometry": { "type": "Point", "coordinates": [ -80.884286284500675, 35.778160997793584 ] } },
{ "type": "Feature", "properties": { "objectid": 28, "epaid": "NCD986197275", "sitename": "Washington MGP", "cerclis_n": "Washington Coal Gas Plant", "siteaddr": "West 3rd Street", "sitecity": "Washington", "sitecounty": "Beaufort", "yrs_op": "1857-1947", "lead_rp": "Progress Energy", "status": "A" }, "geometry": { "type": "Point", "coordinates": [ -77.062961117425161, 35.54785708317582 ] } },
{ "type": "Feature", "properties": { "objectid": 29, "epaid": "NCD986188910", "sitename": "Wilmington MGP", "cerclis_n": "Wilminton Coal Gas Plant", "siteaddr": "Castle St and Surry Street", "sitecity": "Wilmington", "sitecounty": "New Hanover", "yrs_op": "1883-1952", "lead_rp": "Progress Energy", "status": "A" }, "geometry": { "type": "Point", "coordinates": [ -77.949669322263361, 34.22719176423459 ] } },
{ "type": "Feature", "properties": { "objectid": 30, "epaid": "NCD986166700", "sitename": "Wilson MGP", "cerclis_n": "Toisnot Swamp", "siteaddr": "Pine Street", "sitecity": "Wilson", "sitecounty": "Wilson", "yrs_op": "1916-1946", "lead_rp": "City of Wilson", "status": "A" }, "geometry": { "type": "Point", "coordinates": [ -77.90218038304927, 35.734654095531489 ] } },
{ "type": "Feature", "properties": { "objectid": 31, "epaid": "NCD986188845", "sitename": "Winston-Salem MGP No 1", "cerclis_n": "Winston-Salem Coal Gas Plant No 1", "siteaddr": "501 East Third Street", "sitecity": "Winston-Salem", "sitecounty": "Forsyth", "yrs_op": "1900-1958", "lead_rp": "Duke Power", "status": "A" }, "geometry": { "type": "Point", "coordinates": [ -80.239143109830493, 36.098741089245543 ] } },
{ "type": "Feature", "properties": { "objectid": 32, "epaid": "NCD986188852", "sitename": "Winston-Salem MGP No 2", "cerclis_n": "Winston-Salem Coal Gas Plant No 2", "siteaddr": "Brookstown Avenue", "sitecity": "Winston-Salem", "sitecounty": "Forsyth", "yrs_op": "1858-1900", "lead_rp": "unknown", "status": "I" }, "geometry": { "type": "Point", "coordinates": [ -80.244652110827928, 36.091231087958086 ] } }
]
}
